[
  {
    "id": "8f86c7f4-bd18-4e4a-9328-a54a189dd5ba",
    "name": "Samantha Lee",
    "email": "samantha.lee@example.com",
    "neurodivergent_disorders": ["Autism Spectrum Disorder"],
    "description": "Software engineer with a focus on backend systems. I enjoy coding and find peace in solving logical puzzles.",
    "occupation": "Software Engineer",
    "location": { "latitude": 37.774929, "longitude": -122.419418 },
    "photo": "https://randomuser.me/api/portraits/women/2.jpg"
  },
  {
    "id": "8cbf5a70-6cb8-4cce-a4c2-4cde4f84c513",
    "name": "Rachel Green",
    "email": "rachel.green@example.com",
    "neurodivergent_disorders": ["OCD"],
    "description": "Aspiring researcher in environmental science with a keen eye for detail. Passionate about preserving our natural resources.",
    "occupation": "Research Scientist",
    "location": { "latitude": 48.856613, "longitude": 2.352222 },
    "photo": "https://randomuser.me/api/portraits/women/4.jpg"
  },
  {
    "id": "9d8e239c-3953-4822-83f2-ccdd98b8c5e6",
    "name": "Priya Sharma",
    "email": "priya.sharma@example.com",
    "neurodivergent_disorders": ["Autism Spectrum Disorder"],
    "description": "Freelance writer and editor focusing on storytelling and advocacy for neurodivergent voices. Enjoy long walks and coffee chats.",
    "occupation": "Freelance Writer",
    "location": { "latitude": 28.613939, "longitude": 77.209023 },
    "photo": "https://randomuser.me/api/portraits/women/6.jpg"
  },
  {
    "id": "5965f5e7-4208-4e75-8781-833ce9dc910a",
    "name": "Sophia Martinez",
    "email": "sophia.martinez@example.com",
    "neurodivergent_disorders": ["ADHD", "Anxiety"],
    "description": "Digital marketing strategist with a love for storytelling and helping small businesses thrive online. Passionate advocate for mental health awareness.",
    "occupation": "Marketing Strategist",
    "location": { "latitude": 40.73061, "longitude": -73.935242 },
    "photo": "https://randomuser.me/api/portraits/women/11.jpg"
  },
  {
    "id": "7211f315-485d-4c27-b42b-c07c3add0de3",
    "name": "Liam O'Connor",
    "email": "liam.oconnor@example.com",
    "neurodivergent_disorders": ["Autism Spectrum Disorder", "Social Anxiety"],
    "description": "Part-time barista and volunteer at community gardens. I find joy in working with plants and learning about their role in our ecosystem.",
    "occupation": "Barista",
    "location": { "latitude": -37.813629, "longitude": 144.963058 },
    "photo": "https://randomuser.me/api/portraits/men/10.jpg"
  },
  {
    "id": "8a1f0653-cc23-4734-affa-567cd360d706",
    "name": "Michael Chen",
    "email": "michael.chen@example.com",
    "neurodivergent_disorders": ["Dyslexia"],
    "description": "Entrepreneur and small business owner. I specialize in public speaking and building communities for local growth.",
    "occupation": "Entrepreneur",
    "location": { "latitude": 51.507351, "longitude": -0.127758 },
    "photo": "https://randomuser.me/api/portraits/men/3.jpg"
  },
  {
    "id": "9619334e-153d-42bc-8d31-002096a1d462",
    "name": "Rachel Green",
    "email": "rachel.green@example.com",
    "neurodivergent_disorders": ["OCD"],
    "description": "Aspiring researcher in environmental science with a keen eye for detail. Passionate about preserving our natural resources.",
    "occupation": "Research Scientist",
    "location": { "latitude": 48.856613, "longitude": 2.352222 },
    "photo": "https://randomuser.me/api/portraits/women/4.jpg"
  },
  {
    "id": "f70ee165-7f09-485c-b80d-3c3b7c48c9a2",
    "name": "Rachel Green",
    "email": "rachel.green@example.com",
    "neurodivergent_disorders": ["OCD"],
    "description": "Aspiring researcher in environmental science with a keen eye for detail. Passionate about preserving our natural resources.",
    "occupation": "Research Scientist",
    "location": { "latitude": 48.856613, "longitude": 2.352222 },
    "photo": "https://randomuser.me/api/portraits/women/4.jpg"
  }
]
